,city,lat,lng,temp,humidity,cloudiness,wind_spd,country
0,straumen,63.87,11.3,35.6,93.0,83.0,1.74,NO
1,busselton,-33.65,115.33,59.22,97.0,95.0,22.03,AU
2,sao filipe,14.9,-24.5,71.13,72.0,28.0,19.19,CV
3,yulara,-25.24,130.99,69.8,37.0,22.0,9.17,AU
4,tasiilaq,65.61,-37.64,32.0,95.0,99.0,13.87,GL
5,the valley,18.22,-63.06,80.2,78.0,40.0,10.29,AI
6,puerto ayora,-0.74,-90.35,82.18,74.0,40.0,9.17,EC
7,barrow,71.29,-156.79,6.8,71.0,1.0,11.41,US
8,albany,42.6,-73.97,43.9,72.0,76.0,11.52,US
9,georgetown,5.41,100.34,79.68,94.0,40.0,4.7,MY
10,zenzeli,45.92,47.05,53.85,54.0,100.0,1.54,RU
11,kargil,34.57,76.1,27.37,24.0,96.0,5.37,IN
12,cape town,-33.93,18.42,67.87,49.0,85.0,3.89,ZA
13,talnakh,69.49,88.4,35.6,80.0,100.0,33.55,RU
14,raga,8.46,25.68,72.46,20.0,68.0,4.36,SS
15,ewa beach,21.32,-158.01,80.78,54.0,1.0,10.29,US
16,srivardhan,18.03,73.02,77.92,82.0,38.0,4.68,IN
17,jamestown,42.1,-79.24,43.74,41.0,1.0,10.29,US
18,hermanus,-34.42,19.23,64.0,66.0,78.0,3.0,ZA
19,eureka,40.8,-124.16,55.69,73.0,95.0,3.0,US
20,longyearbyen,78.22,15.64,28.4,92.0,20.0,2.24,SJ
21,necochea,-38.55,-58.74,62.94,79.0,25.0,11.01,AR
22,erenhot,43.65,111.98,44.96,60.0,76.0,7.65,CN
23,torbay,47.67,-52.73,32.31,91.0,20.0,13.87,CA
25,ushuaia,-54.8,-68.3,46.4,61.0,40.0,11.41,AR
26,avarua,-21.21,-159.78,82.4,65.0,70.0,8.05,CK
27,key largo,25.09,-80.45,78.46,90.0,5.0,5.01,US
28,yellowknife,62.46,-114.35,25.93,92.0,90.0,10.29,CA
29,pevek,69.7,170.31,3.22,91.0,30.0,7.29,RU
31,adrar,20.5,-10.07,74.77,35.0,80.0,10.36,MR
32,mataura,-46.19,168.86,55.99,68.0,80.0,10.0,NZ
33,san patricio,19.22,-104.7,78.8,83.0,20.0,13.87,MX
34,havoysund,71.0,24.66,37.4,93.0,100.0,24.16,NO
35,kidal,18.44,1.41,85.98,11.0,4.0,8.21,ML
36,port hedland,-20.32,118.57,80.6,100.0,85.0,5.82,AU
37,povenets,62.85,34.83,32.27,95.0,98.0,6.89,RU
38,saskylakh,71.92,114.08,14.07,85.0,0.0,5.01,RU
39,dingle,11.0,122.67,83.3,71.0,13.0,11.9,PH
40,coihaique,-45.58,-72.07,43.93,93.0,90.0,5.82,CL
41,cayenne,4.93,-52.33,80.6,83.0,90.0,4.7,GF
42,quatre cocos,-20.21,57.76,75.96,83.0,40.0,11.41,MU
43,port alfred,-33.59,26.89,63.0,88.0,0.0,5.01,ZA
45,severo-kurilsk,50.68,156.12,34.54,89.0,22.0,13.94,RU
46,poum,-20.23,164.02,78.94,75.0,52.0,12.77,NC
48,san cristobal,7.77,-72.22,70.36,61.0,62.0,0.83,VE
49,rio gallegos,-51.62,-69.22,53.6,37.0,82.0,17.22,AR
50,lagos,6.58,3.75,84.2,83.0,40.0,4.7,NG
51,mae hong son,19.3,97.97,75.72,41.0,1.0,0.98,TH
52,halkirk,52.28,-112.15,41.0,43.0,58.0,4.0,CA
53,dikson,73.51,80.55,35.65,87.0,100.0,20.71,RU
55,mahebourg,-20.41,57.7,76.21,83.0,40.0,11.41,MU
56,vaini,-21.2,-175.2,80.6,74.0,40.0,12.75,TO
57,butaritari,3.07,172.79,83.34,77.0,88.0,17.34,KI
59,bluff,-46.6,168.33,55.99,68.0,100.0,10.0,NZ
60,ahuimanu,21.44,-157.84,79.77,54.0,75.0,10.29,US
62,port elizabeth,-33.92,25.57,60.8,100.0,0.0,1.12,ZA
63,punta arenas,-53.15,-70.92,48.09,66.0,40.0,16.11,CL
64,seoul,37.57,126.98,57.22,67.0,90.0,3.36,KR
66,atuona,-9.8,-139.03,82.0,75.0,95.0,17.6,PF
67,agadez,19.75,10.25,81.91,12.0,0.0,8.37,NE
68,khatanga,71.97,102.5,14.76,94.0,0.0,4.16,RU
69,hobart,-42.88,147.33,53.04,76.0,75.0,8.05,AU
70,kapaa,22.08,-159.32,78.89,65.0,1.0,6.93,US
71,clyde river,70.47,-68.59,8.6,84.0,90.0,11.41,CA
72,rikitea,-23.12,-134.97,77.41,70.0,42.0,5.93,PF
73,san rafael,-34.62,-68.33,73.18,34.0,78.0,13.82,AR
74,koumac,-20.57,164.28,81.21,62.0,45.0,4.32,NC
75,samarai,-10.62,150.67,84.61,69.0,97.0,2.93,PG
76,new norfolk,-42.78,147.06,50.9,82.0,79.0,2.19,AU
77,lorengau,-2.02,147.27,84.83,69.0,10.0,2.62,PG
78,victoria,22.29,114.16,72.05,88.0,43.0,3.56,HK
79,laurel,39.1,-76.85,49.21,49.0,1.0,6.93,US
80,vanavara,60.34,102.28,20.89,88.0,0.0,3.89,RU
81,severnoye,56.35,78.36,43.45,80.0,93.0,9.82,RU
82,kaabong,3.48,34.15,64.51,62.0,100.0,4.05,UG
83,ponta do sol,32.67,-17.1,57.99,60.0,7.0,1.99,PT
84,lakes entrance,-37.88,147.98,55.99,76.0,65.0,5.99,AU
85,castro,-24.79,-50.01,56.71,69.0,47.0,6.08,BR
86,freeport,40.66,-73.58,44.02,75.0,90.0,5.82,US
87,upernavik,72.79,-56.15,22.95,90.0,99.0,14.5,GL
88,naranjal,-2.67,-79.62,83.39,66.0,40.0,6.93,EC
89,qaanaaq,77.48,-69.36,21.69,88.0,100.0,19.26,GL
90,hilo,19.73,-155.09,76.14,58.0,20.0,11.41,US
91,hargeysa,9.56,44.06,71.51,54.0,97.0,6.42,SO
92,saint-pierre,-21.34,55.48,71.47,78.0,20.0,16.11,RE
93,lincoln,40.8,-96.67,73.4,20.0,1.0,20.8,US
94,camopi,3.17,-52.32,74.68,93.0,79.0,3.6,GF
96,beloha,-25.17,45.05,70.66,83.0,6.0,12.28,MG
97,qeshm,26.96,56.27,74.3,88.0,78.0,6.93,IR
98,ust-ishim,57.69,71.17,42.01,82.0,86.0,5.23,RU
99,champerico,14.3,-91.92,85.77,63.0,52.0,6.26,GT
100,baherden,38.44,57.43,65.12,40.0,1.0,7.29,TM
102,kousseri,12.08,15.03,86.0,16.0,25.0,5.82,CM
103,altay,47.87,88.12,46.08,36.0,89.0,4.18,CN
104,pacific grove,36.62,-121.92,60.6,51.0,90.0,10.29,US
105,onokhoy,51.93,108.07,30.2,58.0,75.0,11.18,RU
106,arraial do cabo,-22.97,-42.03,74.16,71.0,97.0,8.01,BR
107,santa marta,11.24,-74.2,81.23,72.0,19.0,15.93,CO
108,tooele,40.53,-112.3,58.39,29.0,1.0,8.05,US
109,constitucion,-35.33,-72.42,59.74,91.0,76.0,10.0,CL
110,tuktoyaktuk,69.45,-133.04,10.4,78.0,75.0,9.17,CA
111,pilar,-9.6,-35.96,78.8,94.0,40.0,3.36,BR
112,ajdabiya,30.76,20.23,62.26,51.0,13.0,8.7,LY
113,tazovskiy,67.47,78.7,35.98,98.0,100.0,16.44,RU
114,beringovskiy,63.05,179.32,21.25,97.0,100.0,16.64,RU
115,ribeira grande,38.52,-28.7,61.86,85.0,100.0,15.57,PT
116,vigrestad,58.57,5.7,37.11,86.0,0.0,4.54,NO
117,kiruna,67.86,20.23,30.2,86.0,18.0,2.24,SE
118,westport,41.14,-73.36,42.44,75.0,90.0,8.05,US
119,morros,-9.45,-46.3,72.82,82.0,100.0,2.24,BR
120,provideniya,64.38,-173.3,23.2,96.0,100.0,13.89,RU
121,cherskiy,68.75,161.3,7.32,88.0,22.0,8.97,RU
123,vila velha,-20.33,-40.29,75.09,78.0,75.0,10.29,BR
124,thompson,55.74,-97.86,17.6,37.0,20.0,14.99,CA
125,saint-philippe,-21.36,55.77,70.23,78.0,20.0,16.11,RE
127,morondava,-20.28,44.28,76.55,71.0,0.0,5.97,MG
129,bredasdorp,-34.53,20.04,50.0,87.0,55.0,2.24,ZA
131,san quintin,30.48,-115.95,62.28,67.0,0.0,19.28,MX
132,guerrero negro,27.98,-114.06,63.79,61.0,0.0,21.18,MX
133,novobelokatay,55.71,58.95,34.03,80.0,37.0,7.83,RU
135,sitio novo do tocantins,-5.52,-47.46,73.26,90.0,99.0,2.26,BR
136,belmonte,-15.86,-38.88,77.0,73.0,75.0,9.17,BR
137,namikupa,-10.83,39.6,69.31,89.0,98.0,3.98,TZ
138,maymyo,22.03,96.47,73.4,64.0,40.0,3.36,MM
139,chara,56.91,118.26,14.13,73.0,100.0,8.39,RU
140,mago,53.25,140.18,30.33,86.0,90.0,8.52,RU
141,bathsheba,13.22,-59.52,79.14,76.0,19.0,17.78,BB
142,arman,59.7,150.17,12.06,83.0,99.0,14.32,RU
143,carutapera,-1.2,-46.02,79.18,84.0,91.0,5.48,BR
144,sao gabriel da cachoeira,-0.13,-67.09,75.06,89.0,83.0,1.59,BR
145,kondinskoye,59.65,67.41,36.95,82.0,33.0,10.76,RU
146,baijiantan,45.63,85.18,58.53,40.0,35.0,4.09,CN
148,dzhebariki-khaya,62.22,135.8,10.08,88.0,52.0,2.17,RU
149,cidreira,-30.18,-50.21,67.82,81.0,0.0,12.93,BR
150,chuy,-33.7,-53.46,64.35,86.0,10.0,9.82,UY
151,chokurdakh,70.63,147.92,0.03,89.0,100.0,10.31,RU
152,saint george,37.1,-113.58,68.29,28.0,40.0,12.75,US
153,kavaratti,10.57,72.64,83.97,73.0,3.0,6.67,IN
156,kahului,20.89,-156.47,79.47,51.0,20.0,16.11,US
157,west wendover,40.74,-114.07,64.4,18.0,90.0,9.17,US
158,olga,43.74,135.29,47.12,54.0,7.0,4.29,RU
159,margate,51.38,1.39,46.99,93.0,19.0,1.99,GB
160,carnarvon,-24.87,113.63,71.6,88.0,72.0,5.82,AU
162,abalak,58.13,68.59,40.39,81.0,89.0,6.69,RU
163,bulgan,48.81,103.53,32.86,47.0,30.0,3.27,MN
164,yumen,40.28,97.2,50.04,24.0,96.0,15.08,CN
165,sao miguel do araguaia,-13.28,-50.16,72.28,87.0,100.0,3.98,BR
166,harwich,51.94,1.28,47.23,85.0,41.0,9.15,GB
167,bure,10.7,37.07,64.44,13.0,99.0,4.61,ET
168,itarema,-2.92,-39.92,77.56,83.0,31.0,1.52,BR
169,telenesti,47.5,28.37,46.99,45.0,69.0,3.65,MD
170,jiaojiang,28.68,121.44,62.01,73.0,100.0,3.31,CN
171,derzhavinsk,51.1,66.32,50.09,64.0,86.0,10.04,KZ
172,wasilla,61.58,-149.44,53.06,66.0,90.0,3.36,US
173,bundaberg,-24.85,152.35,75.29,94.0,40.0,9.17,AU
174,talara,-4.58,-81.27,76.32,70.0,26.0,9.26,PE
175,ariano irpino,41.15,15.08,61.0,76.0,85.0,1.81,IT
176,cabo san lucas,22.89,-109.91,74.48,60.0,5.0,16.11,MX
177,tessalit,20.2,1.01,83.89,12.0,4.0,7.76,ML
178,tiksi,71.69,128.87,10.29,85.0,68.0,3.94,RU
179,ascension,30.22,-90.9,70.12,94.0,75.0,5.21,US
180,codrington,-38.27,141.97,56.52,72.0,53.0,10.31,AU
181,lao cai,22.48,103.95,77.04,72.0,67.0,0.43,VN
182,vitim,59.45,112.56,20.23,89.0,36.0,6.69,RU
184,yerbogachen,61.28,108.01,15.58,87.0,35.0,7.18,RU
186,hithadhoo,-0.6,73.08,83.93,73.0,79.0,11.03,MV
187,nador,35.17,-2.93,60.15,93.0,75.0,3.36,MA
189,geraldton,-28.77,114.6,67.14,88.0,40.0,5.82,AU
190,chipinge,-20.19,32.62,60.57,74.0,29.0,5.21,ZW
191,cap malheureux,-19.98,57.61,75.72,83.0,40.0,11.41,MU
192,lebu,-37.62,-73.65,54.84,91.0,51.0,2.13,CL
193,solnechnyy,50.72,136.63,36.86,67.0,92.0,3.02,RU
194,faanui,-16.48,-151.75,82.78,74.0,25.0,10.63,PF
195,raikot,30.65,75.6,69.01,62.0,0.0,4.38,IN
197,peniche,39.36,-9.38,56.57,87.0,1.0,4.0,PT
198,kaitangata,-46.28,169.85,57.0,55.0,82.0,8.01,NZ
199,pasighat,28.07,95.33,69.4,74.0,58.0,2.33,IN
200,airai,-8.93,125.41,68.59,48.0,59.0,3.67,TL
201,aklavik,68.22,-135.01,24.4,79.0,90.0,6.93,CA
202,atar,20.52,-13.05,70.0,24.0,0.0,10.51,MR
203,bengkulu,-3.8,102.27,77.59,83.0,87.0,3.89,ID
204,balingasay,16.36,119.86,82.85,73.0,88.0,12.59,PH
205,husavik,66.04,-17.34,46.4,70.0,75.0,34.45,IS
206,esperance,-33.87,121.9,59.0,93.0,100.0,14.99,AU
207,buraydah,26.33,43.98,64.4,93.0,93.0,13.87,SA
208,guia lopes da laguna,-21.46,-56.11,67.39,63.0,33.0,3.6,BR
209,birjand,32.87,59.22,55.06,40.0,60.0,4.83,IR
210,kenai,60.55,-151.26,46.67,81.0,90.0,10.29,US
211,souillac,-20.52,57.52,76.06,83.0,40.0,11.41,MU
212,flinders,-34.58,150.86,64.63,62.0,49.0,5.01,AU
213,matara,5.95,80.54,78.01,87.0,7.0,4.43,LK
214,athabasca,54.72,-113.29,43.59,50.0,35.0,7.36,CA
215,isangel,-19.55,169.27,80.6,78.0,75.0,6.93,VU
216,east london,-33.02,27.91,69.89,66.0,0.0,18.19,ZA
217,luau,-10.71,22.22,65.28,70.0,89.0,3.71,AO
218,jardim,-21.48,-56.14,67.33,63.0,33.0,3.56,BR
219,vaitape,-16.52,-151.75,83.64,74.0,22.0,10.49,PF
220,tual,-5.67,132.75,84.04,75.0,98.0,8.05,ID
221,ulaangom,49.98,92.07,34.77,49.0,0.0,2.26,MN
222,port-gentil,-0.72,8.78,81.61,85.0,66.0,10.07,GA
223,taoudenni,22.68,-3.98,77.72,53.0,30.0,15.19,ML
224,zastron,-30.3,27.08,52.83,28.0,0.0,3.85,ZA
226,townsville,-19.25,146.8,83.64,83.0,4.0,8.05,AU
227,cockburn town,21.46,-71.14,78.58,82.0,32.0,15.01,TC
228,haverfordwest,51.8,-4.97,50.47,87.0,91.0,4.7,GB
229,malakal,9.53,31.66,84.29,12.0,91.0,4.59,SS
230,marystown,47.17,-55.15,30.4,94.0,3.0,5.64,CA
231,kalmunai,7.42,81.82,81.57,78.0,63.0,5.46,LK
232,canelli,44.72,8.29,52.3,82.0,76.0,4.0,IT
233,bethel,41.37,-73.41,40.05,60.0,75.0,6.93,US
234,ahipara,-35.17,173.17,67.3,74.0,91.0,9.64,NZ
235,vostok,46.49,135.88,51.31,41.0,21.0,4.83,RU
236,celestun,20.87,-90.4,82.96,74.0,30.0,16.84,MX
237,moctezuma,29.8,-109.67,78.42,15.0,0.0,21.41,MX
238,nikolskoye,59.7,30.79,35.51,93.0,90.0,8.95,RU
239,gainesville,29.65,-82.32,75.87,83.0,20.0,6.93,US
240,alepe,5.5,-3.66,84.2,83.0,20.0,10.29,CI
241,richards bay,-28.78,32.04,72.46,79.0,40.0,8.46,ZA
242,grand gaube,-20.01,57.66,75.74,83.0,40.0,11.41,MU
243,fairbanks,64.84,-147.72,42.15,100.0,90.0,2.01,US
244,saldanha,-33.01,17.94,64.4,55.0,96.0,8.05,ZA
245,najran,17.49,44.13,75.2,57.0,40.0,4.7,SA
246,marrakesh,31.63,-8.01,59.0,82.0,75.0,5.82,MA
247,tamiahua,21.27,-97.45,81.68,85.0,50.0,8.79,MX
248,broken hill,-31.95,141.43,59.0,62.0,6.0,4.7,AU
249,sechura,-5.56,-80.82,75.92,69.0,0.0,14.52,PE
250,bekessamson,46.42,20.63,53.01,40.0,65.0,2.59,HU
252,laguna,38.42,-121.42,67.44,45.0,1.0,13.87,US
253,kavieng,-2.57,150.8,82.99,74.0,93.0,4.9,PG
254,hervey bay,-25.3,152.85,75.97,94.0,40.0,9.17,AU
255,sakakah,29.97,40.21,66.2,45.0,56.0,8.05,SA
256,sept-iles,50.2,-66.38,31.14,80.0,75.0,10.29,CA
257,colac,-38.33,143.58,50.02,97.0,77.0,1.01,AU
258,luderitz,-26.65,15.16,59.0,93.0,4.0,9.17,NA
259,inirida,3.87,-67.92,74.12,95.0,100.0,0.96,CO
260,iralaya,15.0,-83.23,79.99,77.0,0.0,8.72,HN
261,mizan teferi,6.98,35.58,64.31,49.0,94.0,2.95,ET
262,tecoanapa,16.52,-98.75,84.18,66.0,45.0,8.32,MX
263,cam ranh,11.92,109.16,82.4,83.0,20.0,1.12,VN
264,sungairaya,0.7,108.9,77.36,82.0,100.0,4.21,ID
265,monte santo,-10.44,-39.33,72.1,79.0,98.0,6.8,BR
266,coahuayana,18.73,-103.68,86.0,45.0,20.0,11.41,MX
267,villena,38.64,-0.87,56.08,89.0,100.0,4.0,ES
268,haines junction,60.75,-137.51,50.52,39.0,6.0,1.19,CA
269,semme,46.2,1.5,56.25,87.0,100.0,9.17,FR
271,kilindoni,-7.91,39.67,81.81,79.0,99.0,15.88,TZ
272,nuuk,64.18,-51.72,28.4,54.0,97.0,17.22,GL
273,tuatapere,-46.13,167.68,55.99,68.0,47.0,10.0,NZ
274,mangan,27.52,88.53,64.42,36.0,96.0,3.4,IN
275,iqaluit,63.75,-68.51,3.09,71.0,20.0,6.93,CA
276,beberibe,-4.18,-38.13,78.8,88.0,40.0,2.24,BR
277,honningsvag,70.98,25.97,39.38,92.0,100.0,11.56,NO
278,lebedinyy,58.52,125.52,8.29,86.0,94.0,8.75,RU
279,tandil,-37.32,-59.13,64.0,66.0,0.0,1.99,AR
280,mar del plata,-38.0,-57.56,66.09,68.0,24.0,6.93,AR
281,muros,42.78,-9.06,47.37,93.0,16.0,1.41,ES
282,honiara,-9.43,159.95,86.0,74.0,40.0,3.36,SB
283,bilma,18.69,12.92,82.65,13.0,10.0,6.73,NE
284,batemans bay,-35.72,150.18,59.36,77.0,82.0,0.87,AU
285,coquimbo,-29.95,-71.34,59.0,93.0,90.0,9.17,CL
286,ossora,59.24,163.07,21.97,89.0,10.0,4.0,RU
287,gamba,-2.65,10.0,78.94,84.0,99.0,2.15,GA
288,camacha,33.08,-16.33,61.32,72.0,20.0,10.29,PT
289,guilin,25.28,110.29,69.8,94.0,75.0,6.71,CN
290,palmer,42.16,-72.33,39.11,75.0,90.0,4.7,US
291,el alto,-4.27,-81.21,73.49,73.0,21.0,7.78,PE
292,krivosheino,57.34,83.93,37.58,83.0,43.0,8.01,RU
293,mana,5.66,-53.78,78.55,87.0,80.0,7.87,GF
294,leningradskiy,69.38,178.42,5.61,88.0,4.0,8.75,RU
295,cartagena,10.4,-75.51,84.2,74.0,40.0,14.99,CO
296,palu,-0.89,119.87,83.07,66.0,87.0,2.21,ID
297,moyo,3.66,31.72,66.27,76.0,100.0,4.68,UG
298,chhatarpur,24.9,79.6,83.97,28.0,71.0,7.4,IN
299,newport,51.59,-3.0,47.95,97.0,70.0,9.82,GB
301,chapais,49.78,-74.85,39.2,38.0,75.0,8.05,CA
302,karratha,-20.74,116.85,84.7,49.0,89.0,7.85,AU
303,minervino murge,41.08,16.08,60.33,67.0,76.0,4.7,IT
304,hamilton,39.18,-84.53,51.94,40.0,1.0,9.17,US
305,novikovo,51.15,37.89,36.16,77.0,12.0,5.82,RU
306,uray,60.12,64.78,35.33,85.0,30.0,10.76,RU
307,namibe,-15.2,12.15,74.98,69.0,70.0,5.79,AO
308,aswan,24.09,32.91,71.6,26.0,3.0,20.8,EG
309,sur,22.57,59.53,81.27,55.0,19.0,8.14,OM
311,caravelas,-17.71,-39.25,76.51,78.0,93.0,17.25,BR
312,broome,42.25,-75.83,38.17,59.0,75.0,6.93,US
313,charlottetown,46.24,-63.13,33.73,59.0,75.0,10.29,CA
314,whitehorse,60.72,-135.05,59.0,26.0,20.0,2.24,CA
315,warmbad,-28.45,18.73,66.83,22.0,13.0,6.15,NA
317,katsuura,35.13,140.3,62.01,57.0,5.0,20.02,JP
318,san joaquin,10.26,-67.79,75.38,70.0,56.0,5.46,VE
319,illapel,-31.63,-71.17,63.43,51.0,10.0,3.09,CL
320,sistranda,63.73,8.83,42.06,93.0,75.0,5.82,NO
321,santa isabel do rio negro,-0.41,-65.02,74.57,93.0,66.0,1.36,BR
322,lata,40.16,-8.33,54.99,92.0,23.0,1.01,PT
323,marienburg,54.04,19.03,30.67,100.0,0.0,5.14,PL
324,meiganga,6.52,14.3,69.78,63.0,68.0,2.3,CM
325,vardo,70.37,31.11,36.64,81.0,90.0,18.32,NO
326,yining,29.04,114.56,61.25,85.0,100.0,4.07,CN
327,hovd,48.01,91.64,34.7,40.0,1.0,3.38,MN
328,hasaki,35.73,140.83,62.29,51.0,20.0,8.05,JP
329,carahue,-38.7,-73.17,60.8,82.0,72.0,4.7,CL
330,omaruru,-21.43,15.93,67.82,35.0,58.0,3.69,NA
331,sola,-13.88,167.55,83.26,77.0,67.0,11.14,VU
332,wana,32.3,69.57,55.54,36.0,0.0,2.73,PK
333,thyolo,-16.07,35.14,63.37,78.0,58.0,6.17,MW
334,amapa,1.0,-52.0,73.38,92.0,64.0,2.19,BR
335,kloulklubed,7.04,134.26,84.2,79.0,75.0,9.17,PW
336,dharchula,29.85,80.53,55.58,26.0,19.0,8.55,IN
337,ketchikan,55.34,-131.65,57.2,58.0,1.0,16.11,US
338,aurad,18.25,77.43,82.74,27.0,26.0,4.03,IN
339,salalah,17.02,54.09,82.4,69.0,40.0,4.7,OM
341,pusad,19.9,77.58,83.1,27.0,20.0,4.99,IN
342,jiuquan,39.74,98.52,51.35,24.0,76.0,4.41,CN
343,avera,33.19,-82.53,68.76,30.0,1.0,8.05,US
344,lazaro cardenas,17.96,-102.2,81.37,63.0,61.0,8.01,MX
345,rurrenabaque,-14.44,-67.53,68.83,71.0,0.0,1.01,BO
346,komsomolskiy,40.43,71.72,53.6,62.0,4.0,4.7,UZ
347,overpelt,51.21,5.41,50.74,93.0,44.0,5.82,BE
348,qasigiannguit,68.82,-51.19,23.0,85.0,95.0,8.05,GL
349,ilulissat,69.22,-51.1,23.0,85.0,100.0,8.05,GL
350,ancud,-41.87,-73.82,55.4,82.0,90.0,6.93,CL
351,norman wells,65.28,-126.83,39.2,86.0,90.0,14.99,CA
352,zhuhai,22.28,113.57,75.06,100.0,40.0,5.82,CN
353,viesite,56.35,25.56,32.5,90.0,68.0,8.68,LV
354,gemena,3.25,19.77,71.38,84.0,79.0,3.33,CD
355,savannah bight,16.45,-85.85,81.63,80.0,0.0,24.79,HN
356,tamandare,-8.76,-35.1,80.96,80.0,94.0,8.57,BR
357,meulaboh,4.14,96.13,78.66,83.0,68.0,5.06,ID
358,christchurch,-43.53,172.63,63.95,39.0,1.0,19.46,NZ
359,ukiah,39.15,-123.21,61.05,55.0,75.0,5.82,US
360,rocha,-34.48,-54.33,60.55,93.0,0.0,6.98,UY
361,cuamba,-14.8,36.54,65.57,80.0,4.0,4.92,MZ
362,kletskaya,49.31,43.06,40.53,63.0,49.0,2.98,RU
363,baghdad,33.34,44.4,60.8,63.0,1.0,3.36,IQ
364,piacabucu,-10.41,-36.43,79.25,84.0,99.0,7.7,BR
365,yei,4.09,30.68,69.35,64.0,100.0,5.91,SS
367,north bend,43.41,-124.22,53.85,76.0,90.0,8.05,US
368,araouane,18.9,-3.53,88.74,11.0,79.0,3.74,ML
369,alofi,-19.06,-169.92,84.2,74.0,51.0,17.22,NU
370,urubicha,-15.38,-62.95,69.49,57.0,1.0,2.91,BO
371,saint-augustin,51.23,-58.65,24.73,92.0,33.0,13.33,CA
373,sergeyevka,53.88,67.42,48.52,79.0,100.0,8.43,KZ
374,preobrazheniye,42.9,133.91,48.25,50.0,6.0,6.35,RU
375,sapa,5.15,120.32,84.06,75.0,91.0,10.94,PH
376,feijo,-8.16,-70.35,73.35,67.0,42.0,1.54,BR
377,kedrovyy,56.17,91.82,28.4,79.0,20.0,2.24,RU
379,morant bay,17.88,-76.41,82.33,74.0,20.0,17.22,JM
380,bubaque,11.28,-15.83,80.8,61.0,94.0,18.34,GW
381,ayorou,14.73,0.92,86.88,11.0,12.0,7.96,NE
382,inhambane,-23.86,35.38,74.21,78.0,35.0,13.18,MZ
383,kodiak,57.79,-152.41,46.4,75.0,20.0,13.87,US
384,sangar,63.92,127.47,12.13,77.0,2.0,0.98,RU
386,luanda,-8.84,13.23,77.0,94.0,40.0,3.36,AO
388,sayaxche,16.52,-90.17,91.31,37.0,39.0,3.74,GT
389,port hawkesbury,45.62,-61.35,34.32,74.0,1.0,6.93,CA
391,nata,8.33,-80.52,78.01,44.0,85.0,11.9,PA
392,sao joao da barra,-21.64,-41.05,71.83,82.0,100.0,7.25,BR
393,talaya,61.38,152.75,-0.54,81.0,100.0,13.91,RU
394,xining,36.62,101.77,45.3,26.0,100.0,2.59,CN
395,sinnamary,5.38,-52.95,80.01,84.0,67.0,10.65,GF
396,qiyang,26.59,111.85,61.39,87.0,100.0,6.69,CN
397,kolpashevo,58.31,82.91,38.14,79.0,84.0,9.62,RU
398,tete,-16.16,33.59,78.8,74.0,40.0,11.41,MZ
399,banjar,-8.19,114.97,80.6,94.0,20.0,2.24,ID
401,cloquet,46.72,-92.46,50.7,34.0,90.0,14.99,US
402,paamiut,61.99,-49.67,26.33,93.0,100.0,16.58,GL
403,viedma,-40.81,-63.0,77.49,31.0,99.0,19.71,AR
404,olden,61.84,6.81,28.96,89.0,2.0,3.06,NO
405,gat,31.61,34.76,59.74,19.0,0.0,5.08,IL
406,machico,32.7,-16.77,62.6,67.0,20.0,11.41,PT
407,nantucket,41.28,-70.1,38.98,93.0,90.0,26.4,US
408,kathmandu,27.72,85.32,55.4,93.0,20.0,4.7,NP
409,tongren,27.72,109.19,57.45,78.0,83.0,2.46,CN
410,santana do livramento,-30.89,-55.53,60.85,72.0,0.0,6.46,BR
411,lagoa,39.05,-27.98,62.22,84.0,100.0,17.72,PT
412,lavrentiya,65.58,-171.0,20.88,95.0,100.0,9.64,RU
413,chulman,56.85,124.91,12.43,81.0,100.0,13.0,RU
414,aviles,43.55,-5.92,55.54,93.0,75.0,2.24,ES
415,doboj,44.73,18.09,55.4,71.0,96.0,5.82,BA
416,dong hoi,17.48,106.6,79.84,72.0,38.0,4.27,VN
417,guanica,17.97,-66.91,78.91,72.0,7.0,1.01,PR
418,porto novo,6.5,2.6,84.2,83.0,40.0,9.17,BJ
419,vestmanna,62.16,-7.17,42.8,81.0,0.0,11.41,FO
420,harrisburg,40.27,-76.88,46.49,37.0,20.0,13.87,US
421,amahai,-3.33,128.92,83.7,74.0,67.0,2.35,ID
422,makokou,0.57,12.86,70.88,84.0,76.0,2.77,GA
423,labuhan,-6.88,112.21,80.65,82.0,82.0,3.74,ID
424,khotkovo,56.26,38.0,35.6,93.0,40.0,6.71,RU
425,raposa,-6.52,-44.18,71.85,87.0,96.0,0.76,BR
426,okmulgee,35.62,-95.96,67.42,32.0,1.0,13.87,US
427,pangnirtung,66.15,-65.71,3.31,85.0,97.0,4.18,CA
428,buin,-33.73,-70.75,75.2,50.0,76.0,9.17,CL
429,rawson,-43.3,-65.1,69.31,54.0,88.0,9.24,AR
430,pangody,65.85,74.49,36.12,93.0,100.0,13.4,RU
431,thunder bay,48.4,-89.32,47.19,42.0,75.0,13.87,CA
432,bambous virieux,-20.34,57.76,76.05,83.0,40.0,11.41,MU
433,sai buri,6.7,101.62,80.92,81.0,87.0,7.09,TH
434,mikhaylovka,50.06,43.24,37.35,73.0,1.0,5.5,RU
435,butembo,0.15,29.28,58.17,64.0,100.0,1.07,CD
436,qui nhon,13.77,109.23,78.75,82.0,64.0,5.41,VN
437,utiel,39.57,-1.2,54.91,93.0,100.0,3.22,ES
438,muchkapskiy,51.85,42.47,35.37,80.0,12.0,6.82,RU
439,zhigansk,66.77,123.37,6.84,93.0,78.0,12.3,RU
440,suluq,31.67,20.25,60.31,49.0,16.0,7.96,LY
442,rosetta,31.4,30.42,62.6,77.0,0.0,5.82,EG
443,tabou,4.42,-7.35,79.34,86.0,100.0,7.83,CI
444,portland,45.52,-122.68,52.09,76.0,90.0,5.82,US
445,kruisfontein,-34.0,24.73,65.39,36.0,0.0,6.62,ZA
446,salaverry,-8.23,-78.97,71.44,78.0,15.0,7.34,PE
447,coolum beach,-26.53,153.1,64.51,97.0,99.0,1.01,AU
448,olinda,-8.01,-34.86,84.2,74.0,40.0,4.7,BR
449,mantua,45.17,10.78,56.39,76.0,89.0,1.99,IT
450,chase,50.82,-119.69,54.57,55.0,84.0,4.63,CA
451,ifo,6.81,3.2,84.2,83.0,40.0,4.7,NG
452,flin flon,54.77,-101.86,24.8,38.0,20.0,12.75,CA
453,watertown,42.37,-71.18,39.25,80.0,90.0,5.82,US
454,juneau,58.3,-134.42,57.2,41.0,20.0,8.05,US
455,belaya gora,68.53,146.42,2.44,88.0,12.0,6.04,RU
456,icononzo,4.18,-74.53,69.62,55.0,57.0,1.43,CO
457,marsh harbour,26.54,-77.06,80.2,77.0,27.0,9.01,BS
459,leshukonskoye,64.9,45.76,30.85,98.0,84.0,2.15,RU
460,krasnorechenskiy,44.63,135.35,48.9,39.0,0.0,5.23,RU
461,larsnes,62.2,5.58,37.47,88.0,16.0,1.99,NO
462,west plains,36.73,-91.85,61.27,31.0,1.0,9.17,US
463,fuerte olimpo,-21.04,-57.87,69.85,51.0,9.0,0.63,PY
465,nisia floresta,-6.09,-35.21,80.6,88.0,40.0,4.76,BR
466,maumere,-8.62,122.21,83.05,71.0,48.0,1.63,ID
467,breyten,-26.3,29.99,52.9,56.0,49.0,5.55,ZA
468,jega,12.22,4.38,89.42,15.0,8.0,3.69,NG
469,yarada,17.65,83.27,80.85,80.0,0.0,11.34,IN
470,dengzhou,37.81,120.75,51.03,78.0,100.0,8.01,CN
471,sembe,1.65,14.58,72.52,81.0,80.0,0.83,CG
472,sibolga,1.74,98.78,77.61,79.0,80.0,3.4,ID
473,rantepao,-2.97,119.9,73.06,69.0,74.0,0.67,ID
475,mongu,-15.25,23.13,67.06,60.0,97.0,4.54,ZM
476,mount gambier,-37.83,140.77,48.2,100.0,90.0,5.82,AU
477,tucuma,-0.18,-50.05,76.53,91.0,91.0,4.61,BR
478,ushirombo,-3.49,31.96,64.47,69.0,100.0,2.68,TZ
479,high rock,26.62,-78.28,80.6,88.0,75.0,9.17,BS
480,bzenec,48.97,17.27,54.0,74.0,100.0,2.86,CZ
481,taplanszentkereszt,47.2,16.7,55.74,76.0,100.0,0.92,HU
483,camapua,-19.53,-54.04,71.1,75.0,41.0,5.26,BR
484,constantine,36.37,6.61,62.6,77.0,40.0,4.97,DZ
485,noyabrsk,63.2,75.45,42.26,90.0,100.0,19.66,RU
486,mahibadhoo,3.78,72.97,84.81,74.0,53.0,10.13,MV
487,antofagasta,-23.65,-70.4,64.4,77.0,40.0,11.41,CL
488,gravelbourg,49.88,-106.55,39.76,47.0,60.0,14.2,CA
489,weligama,5.97,80.42,78.26,87.0,14.0,4.52,LK
490,tiarei,-17.53,-149.33,86.0,74.0,41.0,5.82,PF
491,zonguldak,41.25,31.83,49.53,60.0,0.0,4.36,TR
492,caraquet,47.79,-64.94,33.85,40.0,1.0,8.05,CA
493,san matias,-16.37,-58.4,73.76,82.0,66.0,2.33,BO
494,port augusta,-32.5,137.77,60.76,87.0,11.0,2.24,AU
495,nizhniy kuranakh,58.84,125.49,15.3,86.0,93.0,6.71,RU
496,dinguiraye,11.3,-10.72,84.45,28.0,86.0,2.91,GN
497,cairns,-16.92,145.77,82.38,78.0,40.0,13.87,AU
498,erechim,-27.63,-52.27,56.37,67.0,0.0,3.67,BR
499,tsiroanomandidy,-18.77,46.03,63.18,67.0,37.0,1.74,MG
500,ippy,6.27,21.22,73.56,72.0,59.0,3.91,CF
501,saint-joseph,-21.37,55.62,70.39,78.0,20.0,16.11,RE
502,halifax,44.65,-63.57,33.35,74.0,100.0,5.01,CA
503,andenes,69.31,16.12,37.36,93.0,96.0,14.99,NO
504,monrovia,6.3,-10.8,78.8,94.0,75.0,8.81,LR
505,lilongwe,-13.97,33.79,60.42,69.0,1.0,4.65,MW
507,faya,18.39,42.45,61.7,82.0,20.0,6.93,SA
508,riyadh,24.69,46.72,75.2,57.0,100.0,3.36,SA
509,west sacramento,38.58,-121.53,67.91,45.0,1.0,13.87,US
510,kampot,10.62,104.18,81.23,79.0,89.0,4.59,KH
511,nizwa,22.93,57.53,76.28,43.0,46.0,1.48,OM
512,abha,18.22,42.51,61.65,82.0,20.0,6.93,SA
513,los llanos de aridane,28.66,-17.92,66.2,68.0,5.0,16.11,ES
515,casper,42.87,-106.31,57.49,20.0,20.0,10.29,US
517,muslyumovo,55.3,53.19,36.03,80.0,14.0,8.68,RU
518,benguela,-12.58,13.41,77.63,87.0,87.0,3.89,AO
519,mercedes,-34.65,-59.43,63.64,82.0,0.0,8.57,AR
520,popondetta,-8.75,148.25,87.01,56.0,30.0,1.21,PG
521,gigmoto,13.78,124.39,82.08,77.0,83.0,13.62,PH
522,vestmannaeyjar,63.44,-20.27,45.41,93.0,100.0,14.79,IS
523,carauari,-4.88,-66.9,74.73,93.0,100.0,2.1,BR
524,brusque,-27.1,-48.92,65.28,90.0,19.0,2.44,BR
525,leh,34.17,77.58,31.66,20.0,87.0,3.13,IN
526,tommot,58.96,126.29,17.26,85.0,62.0,5.3,RU
527,boden,65.83,21.69,30.2,86.0,33.0,4.7,SE
528,mocuba,-16.84,36.99,69.17,94.0,28.0,3.27,MZ
529,palmas,-10.21,-48.36,78.8,83.0,40.0,2.24,BR
530,troitskoye,52.98,84.68,37.45,76.0,0.0,4.68,RU
531,olafsvik,64.89,-23.71,35.06,85.0,100.0,2.91,IS
532,los alamos,35.89,-106.31,56.59,14.0,1.0,13.87,US
533,gimli,50.63,-96.99,32.0,64.0,96.0,5.01,CA
534,nyurba,63.28,118.33,13.8,91.0,85.0,7.02,RU
535,dongsheng,39.82,109.98,43.23,47.0,8.0,15.57,CN
536,micheweni,-4.97,39.83,79.32,89.0,100.0,20.69,TZ
537,kysyl-syr,63.9,122.76,9.57,90.0,17.0,6.38,RU
538,safakulevo,54.99,62.54,38.75,75.0,87.0,7.36,RU
539,san jose,37.34,-121.89,67.48,45.0,40.0,14.99,US
540,batticaloa,7.71,81.69,80.17,82.0,53.0,4.72,LK
541,novopetrovskoye,55.99,36.47,34.99,93.0,40.0,6.71,RU
542,aykhal,66.0,111.5,10.4,43.0,1.0,4.47,RU
543,ambulu,-8.35,113.61,81.21,72.0,98.0,3.4,ID
544,ust-kuyga,70.02,135.6,3.54,83.0,88.0,4.61,RU
545,banda aceh,5.56,95.32,79.48,78.0,81.0,3.71,ID
546,biak,-0.91,122.88,81.5,73.0,9.0,1.9,ID
547,ico,-6.4,-38.86,75.0,83.0,100.0,1.03,BR
548,majene,-3.54,118.97,80.96,80.0,96.0,2.8,ID
549,batangafo,7.3,18.28,77.56,66.0,70.0,5.46,CF
550,itoman,26.12,127.67,74.32,78.0,75.0,14.99,JP
551,cacoal,-11.44,-61.45,72.25,80.0,65.0,2.51,BR
552,sorong,-0.88,131.25,85.05,71.0,72.0,0.94,ID
553,kutiyana,21.62,69.98,77.63,67.0,18.0,7.45,IN
554,hernani,43.27,-1.98,57.33,100.0,90.0,2.24,ES
555,morwell,-38.23,146.4,54.18,87.0,35.0,1.99,AU
556,port hardy,50.7,-127.42,55.4,71.0,20.0,4.7,CA
557,pisco,-13.7,-76.22,69.46,73.0,17.0,18.34,PE
558,la ronge,55.1,-105.28,32.0,81.0,75.0,12.75,CA
559,lompoc,34.64,-120.46,58.51,62.0,90.0,10.29,US
560,nemuro,43.32,145.57,41.0,93.0,75.0,4.7,JP
561,byron bay,-28.65,153.62,70.79,83.0,19.0,9.17,AU
562,hvolsvollur,63.75,-20.22,42.01,99.0,100.0,15.01,IS
563,misratah,32.38,15.09,63.82,76.0,16.0,11.68,LY
564,anadyr,64.75,177.48,15.35,85.0,90.0,13.42,RU
565,chifeng,42.27,118.96,54.3,34.0,100.0,10.89,CN
567,ilhabela,-23.78,-45.36,72.12,77.0,83.0,6.85,BR
569,fuling,29.7,107.39,61.25,75.0,65.0,0.96,CN
570,tacuarembo,-31.73,-55.98,59.97,72.0,0.0,8.08,UY
571,ayagoz,47.97,80.44,44.28,50.0,4.0,4.85,KZ
572,charagua,-19.8,-63.22,62.89,37.0,0.0,1.25,BO
573,asfi,32.3,-9.24,61.75,81.0,32.0,5.26,MA
574,killybegs,54.63,-8.45,46.99,82.0,58.0,5.01,IE
575,irmo,34.09,-81.18,69.76,36.0,40.0,8.05,US
576,rapid valley,44.06,-103.15,51.4,71.0,75.0,13.87,US
577,lajas,18.05,-67.06,78.71,89.0,11.0,8.39,PR
579,warrington,53.39,-2.58,45.57,87.0,71.0,6.93,GB
580,khasan,42.43,130.64,50.16,58.0,84.0,8.25,RU
581,zholymbet,51.74,71.71,49.03,57.0,69.0,2.33,KZ
582,paita,-5.09,-81.11,75.99,68.0,4.0,11.1,PE
583,manzhouli,49.6,117.43,31.24,64.0,64.0,14.99,CN
584,dawlatabad,36.41,64.91,59.77,37.0,96.0,1.19,AF
585,orange,33.7,-117.77,62.19,52.0,75.0,9.17,US
586,bilibino,68.05,166.44,7.97,79.0,71.0,5.64,RU
587,cerritos,33.86,-118.06,63.52,52.0,75.0,9.17,US
588,bemidji,47.47,-94.88,44.56,55.0,75.0,11.41,US
589,stornoway,58.21,-6.39,41.2,86.0,0.0,2.24,GB
590,ostrovnoy,68.05,39.51,31.75,98.0,98.0,9.89,RU
591,khash,28.22,61.22,63.82,35.0,95.0,1.21,IR
592,giddalur,15.35,78.92,73.29,76.0,4.0,0.43,IN
593,nelson bay,-32.72,152.15,64.51,63.0,11.0,8.05,AU
594,berlevag,70.86,29.09,34.47,87.0,70.0,10.25,NO
595,cristalina,-16.77,-47.61,64.26,73.0,98.0,4.25,BR
597,grindavik,63.84,-22.43,35.06,100.0,90.0,4.7,IS
598,san carlos de bariloche,-41.15,-71.31,53.6,54.0,75.0,25.28,AR
599,naze,28.37,129.48,71.6,88.0,75.0,11.41,JP
600,kukuna,9.4,-12.67,77.83,78.0,40.0,5.06,SL
601,guaca,6.88,-72.86,56.77,52.0,91.0,1.5,CO
602,beyneu,45.32,55.2,60.85,33.0,94.0,12.77,KZ
603,megion,61.03,76.11,50.0,53.0,100.0,11.18,RU
605,mayo,38.89,-76.51,50.11,43.0,1.0,8.1,US
606,vao,-22.67,167.48,76.46,68.0,48.0,9.55,NC
607,tura,25.52,90.22,65.77,79.0,12.0,1.36,IN
608,cotonou,6.37,2.42,84.2,83.0,40.0,9.17,BJ
